$GNRMC,034305.00,A,5216.5357,N,10416.8252,E,00.004,194.3,120421,,,A*75
$GNGGA,034304.00,5216.5357,N,10416.8252,E,1,19,0.5,400.8,M,,M,,*66
$GNGSA,M,3,04,05,07,08,09,16,18,26,27,30,,,1.0,0.5,0.8*27
$GNGSA,M,3,67,68,69,76,77,78,86,87,88,,,,1.0,0.5,0.8*23
$GNVTG,315.2,T,,M,00.006,N,00.011,K,A*10
$GNZDA,034304.00,12,04,2021,00,00*7E
$GNGLL,5216.5357,N,10416.8252,E,034304.00,A,A*7C
$GPTKU,000.0,5216.53,N,10416.82,E,194.3,1*7A
$GNRMC,034305.00,A,5216.5357,N,10416.8252,E,00.004,194.3,120421,,,A*75
$GNGGA,034305.00,5216.5357,N,10416.8252,E,1,19,0.5,400.9,M,,M,,*66
$GNGSA,M,3,04,05,07,08,09,16,18,26,27,30,,,1.0,0.5,0.8*27
$GNGSA,M,3,67,68,69,76,77,78,86,87,88,,,,1.0,0.5,0.8*23
$GNVTG,194.3,T,,M,00.004,N,00.008,K,A*10
$GNZDA,034305.00,12,04,2021,00,00*7F
$GNGLL,5216.5357,N,10416.8252,E,034305.00,A,A*7D
$GPTKU,000.0,5216.53,N,10416.82,E,033.1,1*74
$GNRMC,034306.00,A,5216.5357,N,10416.8253,E,00.002,033.1,120421,,,A*7F
$GNGGA,034306.00,5216.5357,N,10416.8253,E,1,19,0.5,400.9,M,,M,,*64
$GNGSA,M,3,04,05,07,08,09,16,18,26,27,30,,,1.0,0.5,0.8*27
$GNGSA,M,3,67,68,69,76,77,78,86,87,88,,,,1.0,0.5,0.8*23
$GNVTG,033.1,T,,M,00.002,N,00.004,K,A*14
$GNZDA,034306.00,12,04,2021,00,00*7C
$GNGLL,5216.5357,N,10416.8253,E,034306.00,A,A*7F
$GPTKU,000.0,5216.53,N,10416.82,E,346.3,1*77
$GNRMC,034307.00,A,5216.5357,N,10416.8253,E,00.004,346.3,120421,,,A*7B
$GNGGA,034307.00,5216.5357,N,10416.8253,E,1,19,0.5,400.9,M,,M,,*65
$GNGSA,M,3,04,05,07,08,09,16,18,26,27,30,,,1.0,0.5,0.8*27
$GNGSA,M,3,67,68,69,76,77,78,86,87,88,,,,1.0,0.5,0.8*23
$GNVTG,346.3,T,,M,00.004,N,00.008,K,A*1D
$GNZDA,034307.00,12,04,2021,00,00*7D
$GNGLL,5216.5357,N,10416.8253,E,034307.00,A,A*7E
$GPTKU,000.0,5216.53,N,10416.82,E,333.0,1*76
$GNRMC,034308.00,A,5216.5357,N,10416.8253,E,00.003,333.0,120421,,,A*72
$GNGGA,034308.00,5216.5357,N,10416.8253,E,1,19,0.5,400.9,M,,M,,*6A
$GNGSA,M,3,04,05,07,08,09,16,18,26,27,30,,,1.0,0.5,0.8*27
$GNGSA,M,3,67,68,69,76,77,78,86,87,88,,,,1.0,0.5,0.8*23
$GNVTG,333.0,T,,M,00.003,N,00.007,K,A*14
$GNZDA,034308.00,12,04,2021,00,00*72
$GNGLL,5216.5357,N,10416.8253,E,034308.00,A,A*71
$GPGSV,6,1,10,04,20,193,42,05,05,333,27,07,56,292,40,08,52,179,45*7A
$GPGSV,6,2,10,09,37,226,38,16,40,071,38,18,14,034,38,26,15,079,35*7A
$GPGSV,6,3,10,27,65,101,49,30,17,300,39*7A
$GLGSV,6,4,9,67,09,226,38,68,30,275,39,69,22,331,40,76,19,095,44*53
$GLGSV,6,5,9,77,68,060,37,78,43,298,45,86,35,039,38,87,42,133,47*5B
$GLGSV,6,6,9,88,13,164,39*67
$GPTKU,000.0,5216.53,N,10416.82,E,136.0,1*71
$GNRMC,034309.00,A,5216.5357,N,10416.8253,E,00.001,136.0,120421,,,A*76
$GNGGA,034309.00,5216.5357,N,10416.8253,E,1,19,0.5,400.9,M,,M,,*6B
$GNGSA,M,3,04,05,07,08,09,16,18,26,27,30,,,1.0,0.5,0.8*27
$GNGSA,M,3,67,68,69,76,77,78,86,87,88,,,,1.0,0.5,0.8*23
$GNVTG,136.0,T,,M,00.001,N,00.003,K,A*15
$GNZDA,034309.00,12,04,2021,00,00*73
$GNGLL,5216.5357,N,10416.8253,E,034309.00,A,A*70
$GPTKU,000.0,5216.53,N,10416.82,E,077.0,1*75
$GNRMC,034310.00,A,5216.5357,N,10416.8253,E,00.006,077.0,120421,,,A*7D
$GNGGA,034310.00,5216.5357,N,10416.8253,E,1,19,0.5,400.9,M,,M,,*63
$GNGSA,M,3,04,05,07,08,09,16,18,26,27,30,,,1.0,0.5,0.8*27
$GNGSA,M,3,67,68,69,76,77,78,86,87,88,,,,1.0,0.5,0.8*23
$GNVTG,077.0,T,,M,00.006,N,00.011,K,A*15
$GNZDA,034310.00,12,04,2021,00,00*7B
$GNGLL,5216.5357,N,10416.8253,E,034310.00,A,A*78
$GPTKU,000.0,5216.53,N,10416.82,E,154.9,1*7C
$GNRMC,034311.00,A,5216.5357,N,10416.8253,E,00.016,154.9,120421,,,A*74
$GNGGA,034311.00,5216.5357,N,10416.8253,E,1,19,0.5,400.9,M,,M,,*62
$GNGSA,M,3,04,05,07,08,09,16,18,26,27,30,,,1.0,0.5,0.8*27
$GNGSA,M,3,67,68,69,76,77,78,86,87,88,,,,1.0,0.5,0.8*23
$GNVTG,154.9,T,,M,00.016,N,00.030,K,A*1E
$GNZDA,034311.00,12,04,2021,00,00*7A
$GNGLL,5216.5357,N,10416.8253,E,034311.00,A,A*79
$GPTKU,000.0,5216.53,N,10416.82,E,185.7,1*7E
$GNRMC,034312.00,A,5216.5357,N,10416.8253,E,00.005,185.7,120421,,,A*77
$GNGGA,034312.00,5216.5357,N,10416.8253,E,1,19,0.5,401.0,M,,M,,*69
$GNGSA,M,3,04,05,07,08,09,16,18,26,27,30,,,1.0,0.5,0.8*27
$GNGSA,M,3,67,68,69,76,77,78,86,87,88,,,,1.0,0.5,0.8*23
$GNVTG,185.7,T,,M,00.005,N,00.010,K,A*1C
$GNZDA,034312.00,12,04,2021,00,00*79
$GNGLL,5216.5357,N,10416.8253,E,034312.00,A,A*7A
$GPTKU,000.0,5216.53,N,10416.82,E,132.9,1*7C
$GNRMC,034313.00,A,5216.5356,N,10416.8253,E,00.002,132.9,120421,,,A*72
$GNGGA,034313.00,5216.5356,N,10416.8253,E,1,19,0.5,401.0,M,,M,,*69
$GNGSA,M,3,04,05,07,08,09,16,18,26,27,30,,,1.0,0.5,0.8*27
$GNGSA,M,3,67,68,69,76,77,78,86,87,88,,,,1.0,0.5,0.8*23
$GNVTG,132.9,T,,M,00.002,N,00.005,K,A*1D
$GNZDA,034313.00,12,04,2021,00,00*78
$GNGLL,5216.5356,N,10416.8253,E,034313.00,A,A*7A
$GPGSV,6,1,10,04,20,193,43,05,05,333,27,07,56,292,42,08,52,179,44*78
$GPGSV,6,2,10,09,37,226,37,16,40,071,38,18,14,034,37,26,15,079,36*79
$GPGSV,6,3,10,27,65,101,49,30,17,300,39*7A
$GLGSV,6,4,9,67,09,226,38,68,30,275,38,69,22,331,40,76,19,095,44*52
$GLGSV,6,5,9,77,68,060,37,78,43,298,45,86,35,039,37,87,42,133,47*54
$GLGSV,6,6,9,88,13,164,39*67
$GPTKU,000.0,5216.53,N,10416.82,E,055.2,1*77
$GNRMC,034314.00,A,5216.5357,N,10416.8253,E,00.002,055.2,120421,,,A*7F
$GNGGA,034314.00,5216.5357,N,10416.8253,E,1,19,0.5,401.0,M,,M,,*6F
$GNGSA,M,3,04,05,07,08,09,16,18,26,27,30,,,1.0,0.5,0.8*27
$GNGSA,M,3,67,68,69,76,77,78,86,87,88,,,,1.0,0.5,0.8*23
$GNVTG,055.2,T,,M,00.002,N,00.005,K,A*16
$GNZDA,034314.00,12,04,2021,00,00*7F
$GNGLL,5216.5357,N,10416.8253,E,034314.00,A,A*7C
$GPTKU,000.0,5216.53,N,10416.82,E,335.0,1*70
$GNRMC,034315.00,A,5216.5357,N,10416.8253,E,00.007,335.0,120421,,,A*7C
$GNGGA,034315.00,5216.5357,N,10416.8253,E,1,19,0.5,401.0,M,,M,,*6E
$GNGSA,M,3,04,05,07,08,09,16,18,26,27,30,,,1.0,0.5,0.8*27
$GNGSA,M,3,67,68,69,76,77,78,86,87,88,,,,1.0,0.5,0.8*23
$GNVTG,335.0,T,,M,00.007,N,00.013,K,A*13
$GNZDA,034315.00,12,04,2021,00,00*7E
$GNGLL,5216.5357,N,10416.8253,E,034315.00,A,A*7D